City_ID,City,Lat,Lng,Max Temp,Humidity,Cloudiness,Wind Speed,Country,Date
0,papatowai,-46.5619,169.4708,10.71,98,100,3.33,NZ,1695248768
1,port-aux-francais,-49.35,70.2167,-0.4,71,100,17.64,TF,1695248768
2,waitangi,-43.9535,-176.5597,13.79,88,5,4.02,NZ,1695248769
3,ebon,4.582,168.6964,28.4,77,91,4.94,MH,1695248769
4,remire-montjoly,4.9167,-52.2667,28.02,83,75,1.03,GF,1695248770
5,iqaluit,63.7506,-68.5145,-0.15,93,100,2.06,CA,1695248770
6,sao gabriel da cachoeira,-0.1303,-67.0892,27.05,76,81,0.55,BR,1695248498
7,hamilton,39.1834,-84.5333,28.62,45,20,4.12,US,1695248698
8,port augusta,-32.5,137.7667,13.19,79,11,3.61,AU,1695248772
9,cidreira,-30.1811,-50.2056,19.01,95,25,5.27,BR,1695248773
10,bilibino,68.0546,166.4372,2.37,67,100,1.27,RU,1695248773
11,hawaiian paradise park,19.5933,-154.9731,27.15,78,100,3.6,US,1695248774
12,nuuk,64.1835,-51.7216,2.71,74,100,2.68,GL,1695248774
13,laojunmiao,39.8333,97.7333,13.46,34,1,2.44,CN,1695248775
14,invercargill,-46.4,168.35,9.45,96,100,0.45,NZ,1695248776
15,puerto natales,-51.7236,-72.4875,3.22,83,84,3.93,CL,1695248777
16,port elizabeth,-33.918,25.5701,11.72,93,0,1.03,ZA,1695248488
17,hermanus,-34.4187,19.2345,12.67,75,29,5.77,ZA,1695248778
18,waingapu,-9.6567,120.2641,22.56,84,8,3.2,ID,1695248778
19,soio,-6.1349,12.3689,23.72,86,22,4.97,AO,1695248689
20,grytviken,-54.2811,-36.5092,-2.78,82,74,4.53,GS,1695248779
21,san pedro,14.35,121.0167,27.57,92,20,1.34,PH,1695248780
22,atafu village,-8.5421,-172.5159,27.83,80,100,8.83,TK,1695248781
23,baganga,7.5739,126.56,25.72,85,99,1.39,PH,1695248781
24,keflavik,64.0049,-22.5624,8.24,71,0,4.12,IS,1695248782
25,ankang,32.68,109.0172,16.24,94,100,1.32,CN,1695248782
26,afaahiti,-17.75,-149.2833,25.93,72,1,3.57,PF,1695248783
27,agadez,19.75,10.25,31.02,13,0,3.48,NE,1695248784
28,badger,64.8,-147.5333,6.31,85,100,2.06,US,1695248784
29,segarcea,44.1,23.75,19.26,55,56,2.01,RO,1695248785
30,edinburgh of the seven seas,-37.0676,-12.3116,11.17,64,100,8.37,SH,1695248785
31,tura,25.5198,90.2201,22.87,99,100,2.66,IN,1695248786
32,cabo san lucas,22.8909,-109.9124,35.9,48,0,7.72,MX,1695248428
33,avarua,-21.2078,-159.775,22.03,56,100,4.63,CK,1695248787
34,weno,7.4515,151.8468,28.56,77,89,5.75,FM,1695248787
35,beau vallon,-20.4189,57.6953,24.13,78,40,5.14,MU,1695248788
36,puerto san jose,13.9256,-90.8244,29.68,69,100,2.85,GT,1695248788
37,shingu,33.7333,135.9833,25.48,88,100,2.53,JP,1695248789
38,isafjordur,66.0755,-23.124,5.97,74,48,7.21,IS,1695248790
39,hammerfest,70.6634,23.6821,4.25,81,20,5.14,NO,1695248790
40,novobelokatay,55.7062,58.9549,6.1,80,70,2.57,RU,1695248790
41,adamstown,-25.066,-130.1015,20.13,90,100,3.9,PN,1695248791
42,toliara,-23.35,43.6667,21.38,81,0,2.13,MG,1695248792
43,siwa oasis,29.2041,25.5195,26.89,46,0,6.26,EG,1695248792
44,holualoa,19.6228,-155.9522,28.08,70,40,5.14,US,1695248793
45,qaqortoq,60.7167,-46.0333,3.77,77,98,0.75,GL,1695248794
46,narsingi,18.0333,78.4333,23.15,89,100,1.88,IN,1695248794
47,armacao de buzios,-22.7469,-41.8817,25.03,85,4,8.59,BR,1695248795
48,yellowknife,62.456,-114.3525,13.01,72,75,3.6,CA,1695248795
49,puerto armuelles,8.2833,-82.8667,26.99,74,99,0.45,PA,1695248796
50,new norfolk,-42.7826,147.0587,9.4,64,46,2.0,AU,1695248796
51,sapucaia,-29.8333,-51.15,23.71,87,0,4.63,BR,1695248797
52,college,64.8569,-147.8028,6.36,82,100,2.06,US,1695248797
53,ancud,-41.8697,-73.8203,7.52,72,100,1.09,CL,1695248798
54,khorol,49.7837,33.2783,16.17,50,98,0.81,UA,1695248801
55,saldanha,-33.0117,17.9442,13.13,88,54,4.99,ZA,1695248801
56,olonkinbyen,70.9221,-8.7187,3.25,66,96,5.38,SJ,1695248802
57,albany,42.6001,-73.9662,20.23,60,0,3.17,US,1695248333
58,haiku-pauwela,20.9219,-156.3051,30.01,48,40,6.69,US,1695248803
59,blackmans bay,-43.0167,147.3167,8.74,72,21,3.36,AU,1695248804
60,olinda,-8.0089,-34.8553,25.85,78,75,5.66,BR,1695248804
61,ilanskiy,56.2358,96.065,8.92,77,51,1.72,RU,1695248805
62,north bend,43.4065,-124.2243,21.25,63,0,5.14,US,1695248805
63,saint-philippe,-21.3585,55.7679,21.77,84,39,4.84,RE,1695248806
64,farafangana,-22.8167,47.8333,21.33,90,0,3.23,MG,1695248806
65,saeby,57.3319,10.5225,16.96,86,99,7.74,DK,1695248807
66,punta arenas,-53.15,-70.9167,4.06,81,40,11.83,CL,1695248360
67,mogocha,53.7333,119.7667,1.4,85,3,1.58,RU,1695248808
68,ribeira grande,38.5167,-28.7,21.54,86,100,12.52,PT,1695248808
69,vila velha,-20.3297,-40.2925,24.97,82,75,6.17,BR,1695248809
70,thompson,55.7435,-97.8558,16.09,72,40,3.6,CA,1695248590
71,raymondville,26.4815,-97.7831,38.48,38,6,6.1,US,1695248810
72,polyarnyy,69.1989,33.4478,5.24,80,89,7.91,RU,1695248810
73,bethel,41.3712,-73.414,22.47,69,0,1.54,US,1695248811
74,klyuchi,52.2667,79.1667,12.82,80,100,2.48,RU,1695248812
75,margaret river,-33.95,115.0667,9.14,91,10,3.55,AU,1695248472
76,selfoss,63.9331,-20.9971,6.69,63,0,5.17,IS,1695248813
77,asaita,11.5636,41.4394,34.09,42,18,2.01,ET,1695248813
78,marrakesh,31.6315,-8.0083,23.04,56,0,5.14,MA,1695248814
79,luderitz,-26.6481,15.1594,14.69,76,0,7.67,NA,1695248815
80,leava,-14.3,-178.1667,26.75,76,59,8.41,WF,1695248816
81,nandyal,15.4833,78.4833,26.81,72,100,2.94,IN,1695248816
82,iskateley,67.6803,53.1512,10.68,86,100,7.51,RU,1695248817
83,nikko,36.75,139.6167,21.32,93,100,0.62,JP,1695248817
84,georgetown,5.4112,100.3354,27.75,95,40,4.63,MY,1695248556
85,enewetak,11.3474,162.3373,29.16,77,70,5.81,MH,1695248818
86,kilifi,-3.6305,39.8499,24.33,90,8,5.19,KE,1695248819
87,hede,33.7681,120.2517,18.92,73,99,2.59,CN,1695248819
88,howard springs,-12.497,131.047,24.95,91,26,1.56,AU,1695248820
89,ar rutbah,33.0381,40.2848,26.23,18,0,4.3,IQ,1695248820
90,puerto ayora,-0.7393,-90.3518,25.98,90,53,0.45,EC,1695248821
91,chernyshevskiy,63.0128,112.4714,1.44,88,93,2.91,RU,1695248821
92,thunder bay,48.4001,-89.3168,18.99,77,20,5.66,CA,1695248703
93,mumford,5.2618,-0.759,24.62,92,93,2.82,GH,1695248573
94,tiksi,71.6872,128.8694,0.78,97,100,6.24,RU,1695248823
95,carnarvon,-24.8667,113.6333,19.04,82,45,7.82,AU,1695248823
96,nar'yan-mar,67.6713,53.087,10.69,86,100,7.46,RU,1695248824
97,tongliao,43.6125,122.2653,12.61,52,6,3.78,CN,1695248824
98,tayoltita,24.0833,-105.9333,29.45,62,9,2.96,MX,1695248825
99,ola,59.5833,151.2833,8.97,85,100,7.78,RU,1695248826
100,tateyama,34.9833,139.8667,27.28,87,87,7.72,JP,1695248827
101,wailua homesteads,22.0669,-159.378,28.44,69,75,5.66,US,1695248827
102,hadibu,12.65,54.0333,26.7,82,68,6.0,YE,1695248828
103,esbjerg,55.4667,8.45,18.28,87,75,7.2,DK,1695248828
104,longyearbyen,78.2186,15.6401,-3.09,80,40,1.54,SJ,1695248829
105,ushuaia,-54.8,-68.3,1.81,93,75,8.23,AR,1695248752
106,bethanie,-26.4833,17.15,16.27,19,0,1.98,NA,1695248830
107,west island,-12.1568,96.8225,24.99,78,40,5.66,CC,1695248830
108,queenstown,-31.8976,26.8753,9.16,77,2,0.89,ZA,1695248831
109,gornozavodsk,58.3758,58.3211,8.94,68,64,3.51,RU,1695248832
110,aqadyr,48.2553,72.8483,11.84,77,100,1.63,KZ,1695248832
111,krasnovishersk,60.4078,57.082,11.15,82,22,4.4,RU,1695248833
112,muncar,-8.4333,114.3333,22.01,91,45,0.49,ID,1695248833
113,benidorm,38.5382,-0.131,26.05,68,3,4.58,ES,1695248834
114,buenaventura,3.8801,-77.0312,26.52,88,91,2.0,CO,1695248834
115,harper,4.375,-7.7169,25.26,90,79,3.88,LR,1695248835
116,ust-nera,64.5667,143.2,-2.05,90,100,4.08,RU,1695248835
117,murud,18.3258,72.965,26.09,90,99,2.19,IN,1695248838
118,fale old settlement,-9.3852,-171.2468,27.88,78,99,10.18,TK,1695248838
119,vernon,50.2581,-119.2691,18.34,46,82,1.34,CA,1695248284
120,bamboo flat,11.7,92.7167,26.05,94,40,1.03,IN,1695248840
121,sitka,57.0531,-135.33,11.94,76,100,5.14,US,1695248841
122,wattegama,6.7989,81.4808,23.39,90,71,2.05,LK,1695248842
123,vallenar,-28.5708,-70.7581,22.51,32,0,2.94,CL,1695248842
124,sandnessjoen,66.0217,12.6316,6.29,86,100,10.82,NO,1695248843
125,barra de santo antonio,-9.4047,-35.5072,23.6,82,1,4.15,BR,1695248843
126,sanford,28.8006,-81.2731,29.63,81,20,4.63,US,1695248576
127,kavieng,-2.5744,150.7967,27.11,84,89,3.95,PG,1695248844
128,t'ongch'on-up,38.9539,127.8917,17.26,77,92,3.03,KP,1695248845
129,bantay,17.5847,120.3892,26.3,88,50,1.46,PH,1695248845
130,nizhneudinsk,54.9076,99.0276,8.35,83,41,1.08,RU,1695248846
131,port douglas,-16.4833,145.4667,23.33,72,17,1.78,AU,1695248847
132,jibou,47.2667,23.25,14.62,70,13,1.64,RO,1695248847
133,callao,-12.0667,-77.15,19.84,77,100,6.69,PE,1695248486
134,necochea,-38.5473,-58.7368,11.23,80,100,6.84,AR,1695248848
135,bredasdorp,-34.5322,20.0403,10.82,72,75,3.0,ZA,1695248849
136,krasnozerskoye,53.9828,79.2374,11.5,67,12,2.13,RU,1695248854
137,kone,-21.0595,164.8658,24.06,80,87,2.87,NC,1695248855
138,djambala,-2.5447,14.7533,22.99,79,18,0.99,CG,1695248857
139,lebu,-37.6167,-73.65,9.72,74,100,4.06,CL,1695248858
140,st. john's,47.5649,-52.7093,17.21,88,20,4.63,CA,1695248392
141,key west,24.5557,-81.7826,31.0,72,0,2.06,US,1695248691
142,sabang,5.8933,95.3214,27.44,76,100,3.53,ID,1695248860
143,aripuana,-9.1667,-60.6333,30.49,47,75,0.66,BR,1695248860
144,filadelfia,39.9523,-75.1638,24.53,53,40,3.6,US,1695248590
145,talnakh,69.4865,88.3972,3.45,96,100,3.55,RU,1695248861
146,freeport,40.6576,-73.5832,24.44,50,0,5.14,US,1695248862
147,paka,4.6374,103.4368,25.96,94,59,0.0,MY,1695248592
148,tyukalinsk,55.8732,72.1967,7.59,84,3,2.48,RU,1695248863
149,mermoz boabab,14.7065,-17.4758,27.88,89,20,2.06,SN,1695248712
150,dakhla,23.6848,-15.958,21.06,84,100,9.9,EH,1695248776
151,saipan,15.1355,145.701,29.39,84,40,5.66,MP,1695248864
152,mount gambier,-37.8333,140.7667,8.51,84,13,2.26,AU,1695248865
153,turkmenbasy,40.0222,52.9552,19.43,37,0,6.17,TM,1695248865
154,petropavlovsk-kamchatsky,53.0452,158.6483,10.33,62,75,6.0,RU,1695248866
155,naze,28.3667,129.4833,25.51,84,88,1.15,JP,1695248867
156,chonchi,-42.6128,-73.8092,9.56,78,100,0.79,CL,1695248867
157,vilyuchinsk,52.9306,158.4028,11.15,77,99,8.42,RU,1695248868
158,nabire,-3.3667,135.4833,24.62,93,93,0.37,ID,1695248868
159,fort st. john,56.2499,-120.8529,15.94,36,40,1.54,CA,1695248869
160,shache,38.4167,77.2406,20.95,18,97,2.49,CN,1695248869
161,quelimane,-17.8786,36.8883,22.97,94,0,1.03,MZ,1695248870
162,lihue,21.9789,-159.3672,28.77,69,75,5.66,US,1695248870
163,udachny,66.4167,112.4,0.25,86,63,4.22,RU,1695248871
164,ekibastuz,51.6667,75.3667,14.67,65,83,2.08,KZ,1695248871
165,ciudad guayana,8.3533,-62.6528,30.75,49,90,0.59,VE,1695248872
166,warangal,18.0,79.5833,24.72,91,100,2.41,IN,1695248872
167,glace bay,46.1969,-59.957,15.44,85,75,4.12,CA,1695248873
168,wynyard,-41.0,145.7167,6.66,82,3,3.14,AU,1695248873
169,san jose de mayo,-34.3375,-56.7136,14.83,96,100,5.73,UY,1695248874
170,kailua-kona,19.6406,-155.9956,28.98,71,40,5.14,US,1695248719
171,ivrindi,39.5839,27.4864,19.35,73,2,1.68,TR,1695248875
172,mil'kovo,55.6078,37.7956,17.51,56,99,4.98,RU,1695248876
173,sao paulo de olivenca,-3.3783,-68.8725,26.99,78,89,1.35,BR,1695248876
174,akureyri,65.6835,-18.0878,5.96,75,75,2.57,IS,1695248877
175,kamiiso,41.8167,140.65,15.21,88,75,1.54,JP,1695248877
176,jijiga,9.35,42.8,17.73,83,95,2.34,ET,1695248878
177,port lincoln,-34.7333,135.8667,12.82,73,0,4.12,AU,1695248878
178,penzance,50.1186,-5.5371,14.87,71,5,7.74,GB,1695248878
179,karlovy vary,50.2327,12.8712,17.58,93,0,1.03,CZ,1695248879
180,constantia,44.1833,28.65,18.38,72,11,2.39,RO,1695248879
181,belmonte,-15.8631,-38.8828,22.9,81,2,3.72,BR,1695248880
182,utrik,11.2278,169.8474,28.72,76,86,6.59,MH,1695248881
183,nacala,-14.5428,40.6728,23.04,88,63,2.12,MZ,1695248607
184,vorgashor,67.5833,63.95,7.76,98,100,5.35,RU,1695248882
185,morteros,-30.7116,-61.9986,17.79,82,75,2.67,AR,1695248882
186,chernigovka,44.3389,132.5728,7.62,78,0,1.45,RU,1695248883
187,sechura,-5.5569,-80.8222,25.62,59,41,7.94,PE,1695248883
188,okha,53.5739,142.9478,7.42,54,94,12.98,RU,1695248884
189,chu,43.5983,73.7614,14.05,63,36,3.29,KZ,1695248885
190,colonia,50.9333,6.95,19.34,70,0,2.57,DE,1695248799
191,riyadh,24.6877,46.7219,30.08,15,0,2.1,SA,1695248834
192,dampit,-8.2116,112.7493,18.01,93,21,1.88,ID,1695248888
193,tual,-5.6667,132.75,25.35,85,97,5.73,ID,1695248889
194,muisne,0.6,-80.0333,25.28,80,100,3.88,EC,1695248889
195,hasaki,35.7333,140.8333,25.22,88,11,4.09,JP,1695248890
196,mouila,-1.8685,11.0559,24.84,87,40,0.96,GA,1695248891
197,chegdomyn,51.1167,133.0167,4.17,77,89,0.97,RU,1695248891
198,kendari,-3.945,122.4989,21.56,90,46,1.27,ID,1695248892
199,novodvinsk,64.4165,40.8122,11.11,81,98,5.46,RU,1695248892
200,ilulissat,69.2167,-51.1,-1.99,74,72,0.0,GL,1695248893
201,vila franca do campo,37.7167,-25.4333,22.23,99,100,3.26,PT,1695248893
202,itacare,-14.2775,-38.9967,22.58,81,1,2.39,BR,1695248894
203,soma,39.1855,27.6094,16.71,66,1,3.01,TR,1695248894
204,kalawit,8.0667,122.5167,25.19,92,91,2.33,PH,1695248895
205,happy valley-goose bay,53.3168,-60.3315,8.17,81,100,8.23,CA,1695248896
206,hastings,50.8552,0.5729,18.86,46,100,11.64,GB,1695248896
207,uturoa,-16.7333,-151.4333,24.35,72,48,6.19,PF,1695248897
208,san gabriel chilac,18.3167,-97.35,30.49,37,2,5.04,MX,1695248897
209,sao tome,0.3365,6.7273,26.02,89,75,4.12,ST,1695248898
210,kralendijk,12.15,-68.2667,30.99,66,0,7.2,BQ,1695248899
211,xiongzhou,25.1167,114.3,24.9,88,47,1.05,CN,1695248899
212,vejen,55.4833,9.15,18.16,77,99,3.09,DK,1695248599
213,viedma,-40.8135,-62.9967,10.01,76,100,6.09,AR,1695248900
214,nicoya,10.1483,-85.452,27.77,83,99,1.21,CR,1695248901
215,veraval,20.9,70.3667,26.93,90,91,2.89,IN,1695248902
216,calvinia,-31.4707,19.776,10.24,73,0,1.91,ZA,1695248902
217,susuman,62.7833,148.1667,-0.2,83,100,6.23,RU,1695248903
218,mangai,-4.05,19.5333,22.42,87,59,1.06,CD,1695248903
219,dunedin,-45.8742,170.5036,17.67,51,36,1.34,NZ,1695248253
220,poronaysk,49.2167,143.1167,10.96,67,0,5.08,RU,1695248905
221,wanxian,30.8039,108.3897,20.22,97,100,2.83,CN,1695248905
222,island harbour,50.724,-1.2758,14.43,92,100,0.45,GB,1695248906
223,jamestown,42.097,-79.2353,19.77,63,0,2.57,US,1695248906
224,kapuskasing,49.4169,-82.4331,21.05,37,0,3.6,CA,1695248890
225,kenai,60.5544,-151.2583,8.05,95,100,7.72,US,1695248907
226,mar del plata,-38.0023,-57.5575,13.38,91,100,4.12,AR,1695248708
227,kapoeta,4.7717,33.5903,24.97,64,17,0.95,SS,1695248908
228,timbuktu,16.7735,-3.0074,38.0,19,88,2.22,ML,1695248908
229,kipushi,-11.7667,27.2333,21.22,27,3,3.17,CD,1695248909
230,tocopilla,-22.092,-70.1979,20.71,66,18,5.97,CL,1695248910
231,baie-saint-paul,47.4411,-70.4986,19.47,72,27,4.1,CA,1695248910
232,rongelap,11.1635,166.8941,28.62,77,37,5.82,MH,1695248911
233,korba,22.35,82.6833,24.28,95,100,1.44,IN,1695248911
234,norvenich,50.8,6.65,20.87,73,64,4.27,DE,1695248912
235,sretensk,52.2453,117.7093,4.84,81,22,0.39,RU,1695248912
236,portland,45.5234,-122.6762,21.49,53,75,5.14,US,1695248711
237,kolonia,50.9333,6.95,19.34,70,0,2.57,DE,1695248653
238,strezhevoy,60.7333,77.5889,9.98,73,100,3.13,RU,1695248914
239,caleta de carquin,-11.0925,-77.6267,20.16,81,37,4.67,PE,1695248914
240,soro,21.2881,86.6858,25.25,94,100,2.72,IN,1695248915
241,vadso,70.0744,29.7487,4.49,75,0,5.14,NO,1695248916
242,stornoway,58.2093,-6.3865,11.98,92,75,3.6,GB,1695248916
243,aasiaat,68.7098,-52.8699,-4.48,83,71,1.39,GL,1695248917
244,aykhal,66.0,111.5,-0.08,85,67,6.12,RU,1695248917
245,las khorey,11.1595,48.1967,31.54,64,84,0.59,SO,1695248918
246,xilin hot,43.9667,116.0333,9.71,53,4,3.13,CN,1695248920
247,rio gallegos,-51.6226,-69.2181,7.03,45,75,12.86,AR,1695248696
248,sochi,43.6,39.7303,18.05,60,0,2.22,RU,1695248922
249,sanctuary point,-35.1114,150.629,19.3,52,9,2.96,AU,1695248922
250,hurricane,37.1753,-113.2899,30.28,24,46,2.68,US,1695248923
251,daru,-9.0763,143.2092,25.38,79,93,6.1,PG,1695248923
252,joaquin v. gonzalez,-25.0833,-64.1833,26.43,40,3,3.38,AR,1695248924
253,florence,43.7667,11.25,21.33,72,0,0.51,IT,1695248924
254,tolanaro,-25.0319,46.9987,22.04,83,20,3.09,MG,1695248925
255,xiva,41.3783,60.3639,12.99,53,0,3.45,UZ,1695248925
256,axim,4.8699,-2.2405,24.72,93,83,2.61,GH,1695248926
257,salinopolis,-0.6136,-47.3561,27.33,81,19,5.86,BR,1695248926
258,stanley,54.868,-1.6985,10.77,88,0,1.54,GB,1695248927
259,awjilah,29.1081,21.2869,24.99,36,0,3.84,LY,1695248927
260,walvis bay,-22.9575,14.5053,12.83,93,0,5.14,NA,1695248929
261,papao,-17.75,-149.55,26.82,73,2,4.11,PF,1695248930
262,bardai,11.65,7.2333,24.77,57,31,2.21,NG,1695248931
263,anadyr,64.75,177.4833,6.28,70,0,5.81,RU,1695248932
264,massawa,15.6097,39.45,31.96,59,82,2.15,ER,1695248932
265,xiaoweizhai,26.1903,107.5125,21.53,98,99,1.86,CN,1695248933
266,la'ie,21.6477,-157.9253,32.98,67,43,5.81,US,1695248933
267,libertad,8.9442,125.5019,24.1,93,93,0.41,PH,1695248933
268,faya-largeau,17.9257,19.1043,31.98,18,4,5.16,TD,1695248934
269,mantua,45.1667,10.7833,21.58,86,100,0.45,IT,1695248934
270,el granada,37.5027,-122.4694,27.14,67,100,6.17,US,1695248935
271,lerwick,60.1545,-1.1494,13.0,81,30,10.84,GB,1695248935
272,la passe,45.5549,-0.8967,18.88,78,74,3.1,FR,1695248936
273,alice springs,-23.7,133.8833,20.75,32,74,6.17,AU,1695248937
274,vares,44.1644,18.3283,16.68,62,100,1.37,BA,1695248938
275,taksimo,56.3444,114.8794,3.15,88,62,0.89,RU,1695248938
276,ugoofaaru,5.6667,73.0,28.03,72,84,3.16,MV,1695248939
277,zhangye,38.9342,100.4517,16.65,36,88,1.97,CN,1695248939
278,merizo village,13.2658,144.6691,28.31,98,100,4.13,GU,1695248940
279,minas de marcona,-15.2119,-75.1103,16.47,68,23,6.47,PE,1695248941
280,chudovo,59.1167,31.6833,16.18,81,98,3.82,RU,1695248941
281,bochnia,49.9691,20.4303,17.19,86,64,1.91,PL,1695248942
282,uglegorsk,49.0833,142.0333,12.42,53,0,8.28,RU,1695248942
283,taoudenni,22.6783,-3.9836,38.44,8,1,4.24,ML,1695248943
284,grand falls-windsor,48.9332,-55.6649,14.17,90,58,2.41,CA,1695248753
285,hays,30.0502,-98.0336,37.0,39,25,2.24,US,1695248732
286,thurso,58.5927,-3.5259,11.59,77,79,13.69,GB,1695248945
287,maceio,-9.6658,-35.7353,23.69,100,75,1.54,BR,1695248716
288,tsarevo,42.1667,27.85,17.39,81,16,1.42,BG,1695248947
289,coahuayana de hidalgo,18.7,-103.6583,30.73,71,55,1.83,MX,1695248948
290,sao jose da coroa grande,-8.8978,-35.1478,24.01,81,1,4.15,BR,1695248948
291,guapiles,10.2159,-83.7866,28.48,93,94,0.56,CR,1695248949
292,port-vila,-17.7338,168.3219,26.78,69,20,5.14,VU,1695248949
293,rikaze,29.25,88.8833,11.08,57,36,1.6,CN,1695248950
294,uchiza,-8.4592,-76.4633,28.63,61,60,0.57,PE,1695248950
295,labytnangi,66.6572,66.4183,7.42,96,100,3.61,RU,1695248951
296,port mathurin,-19.6833,63.4167,22.67,80,10,8.19,MU,1695248951
297,xichang,27.8964,102.2634,18.87,96,100,1.12,CN,1695248952
298,goundam,16.4145,-3.6708,37.32,23,66,2.05,ML,1695248952
299,santa marta,11.2408,-74.199,33.03,70,75,5.66,CO,1695248953
300,mandan,46.8267,-100.8896,20.99,68,75,5.14,US,1695248953
301,kodiak,57.79,-152.4072,12.73,62,0,6.17,US,1695248954
302,maridi,4.9158,29.4742,19.26,97,73,1.76,SS,1695248954
303,fontenay-le-comte,46.5833,-1.0,19.8,86,100,7.37,FR,1695248955
304,vorkuta,67.5,64.0,8.3,98,100,5.62,RU,1695248955
305,lovington,32.944,-103.3485,33.9,18,66,4.36,US,1695248956
306,jertih,5.7336,102.4897,24.15,92,98,1.48,MY,1695248956
307,maryborough,-25.5333,152.7,19.75,86,83,1.39,AU,1695248957
308,dukhan,25.4297,50.7858,31.23,66,19,3.04,QA,1695248958
309,cacabelos,42.6002,-6.7237,19.0,65,100,3.58,ES,1695248958
310,patterson,37.4716,-121.1297,29.86,44,0,0.33,US,1695248884
311,aitape,-3.1374,142.3475,26.82,77,76,1.49,PG,1695248959
312,sinabang,2.4803,96.3801,24.96,84,100,0.74,ID,1695248959
313,salahonda,2.1019,-78.7217,26.46,82,100,5.2,CO,1695248960
314,port isabel,26.0734,-97.2086,36.02,61,0,5.66,US,1695248960
315,zaragoza,41.6561,-0.8773,24.25,40,0,6.17,ES,1695248961
316,bokoro,12.3807,17.0568,29.98,45,12,2.15,TD,1695248962
317,kapa'a,22.0752,-159.319,29.18,68,75,5.66,US,1695248962
318,khandyga,62.6667,135.6,1.25,56,100,4.31,RU,1695248963
319,rapid city,44.0805,-103.231,24.61,38,0,3.6,US,1695248674
320,mazagao,-0.115,-51.2894,29.03,62,28,3.79,BR,1695248964
321,yabelo,4.8833,38.0833,19.33,55,98,2.71,ET,1695248964
322,karratha,-20.7377,116.8463,21.52,77,10,3.29,AU,1695248965
323,whitehorse,60.7161,-135.0538,11.12,57,75,7.2,CA,1695248965
324,tadine,-21.55,167.8833,22.83,76,19,6.22,NC,1695248966
325,tocaima,4.4582,-74.6343,35.37,31,34,2.6,CO,1695248966
326,tambacounda,13.7539,-13.7586,29.03,89,20,1.03,SN,1695248967
327,lagoa,39.05,-27.9833,20.29,76,98,10.19,PT,1695248968
328,pariaman,-0.619,100.12,23.03,93,98,1.22,ID,1695248968
329,coquimbo,-29.9533,-71.3436,14.85,72,0,4.12,CL,1695248969
330,al ghayzah,16.2079,52.176,26.84,83,67,3.91,YE,1695248969
331,pokhara,28.2333,83.9833,21.4,94,95,0.98,NP,1695248971
332,riverton,40.5219,-111.9391,28.92,23,40,7.2,US,1695248887
333,shimokizukuri,40.8061,140.3861,18.3,94,100,2.16,JP,1695248972
334,hami,42.8,93.45,18.74,19,78,1.44,CN,1695248972
335,beira,-19.8436,34.8389,22.05,100,0,2.57,MZ,1695248973
336,kununurra,-15.7667,128.7333,22.99,73,40,6.17,AU,1695248973
337,coos bay,43.3665,-124.2179,21.29,63,0,5.14,US,1695248974
338,porto novo,6.4965,2.6036,26.9,89,62,1.94,BJ,1695248974
339,tamanrasset,22.785,5.5228,23.95,17,0,2.06,DZ,1695248975
340,greymouth,-42.4667,171.2,13.59,89,88,7.15,NZ,1695248975
341,mendefera,14.8872,38.8153,15.96,84,69,1.21,ER,1695248976
342,alofi,-19.0595,-169.9187,21.94,78,75,5.14,NU,1695248976
343,churapcha,62.0025,132.4325,-2.48,59,96,4.16,RU,1695248977
344,zheleznogorsk-ilimskiy,56.5768,104.1217,3.13,84,15,0.8,RU,1695248977
345,nalut,30.3333,10.85,27.29,26,100,5.06,LY,1695248978
346,morant bay,17.8815,-76.4093,29.79,73,94,4.41,JM,1695248978
347,anzio,41.4853,12.6179,24.85,99,88,3.81,IT,1695248979
348,novoishimskiy,53.1981,66.7694,9.9,73,98,2.87,KZ,1695248979
349,kinkala,-4.3614,14.7644,26.62,62,64,0.88,CG,1695248980
350,borogontsy,62.6683,131.1683,-3.47,68,20,2.35,RU,1695248980
351,korla,41.7597,86.1469,20.37,41,87,7.18,CN,1695248981
352,tirebolu,41.0069,38.8139,21.04,79,88,2.6,TR,1695248981
353,puerto aysen,-45.4,-72.7,7.14,88,90,0.58,CL,1695248982
354,bayanhongor,46.7167,100.1167,1.5,54,37,2.14,MN,1695248982
355,marsassoum,12.8275,-15.9806,26.05,91,70,2.34,SN,1695248983
356,lucas,41.6501,-83.6666,26.32,53,0,3.09,US,1695248983
357,mili,6.0815,171.735,27.68,77,100,2.9,MH,1695248984
358,howrah,22.5892,88.3103,27.0,94,75,4.12,IN,1695248655
359,rio grande,-32.035,-52.0986,19.06,99,97,5.66,BR,1695248985
360,kavaratti,10.5669,72.642,27.65,78,100,4.4,IN,1695248821
361,cerritos,33.8583,-118.0648,27.59,57,20,5.14,US,1695248761
362,kingston,17.997,-76.7936,29.56,79,40,3.09,JM,1695248960
363,sijunjung,-0.6876,100.9537,21.61,98,89,0.75,ID,1695248988
364,conneaut,41.9476,-80.5542,23.62,68,40,3.11,US,1695248405
365,tame,6.461,-71.73,28.69,71,19,0.19,CO,1695248989
366,anloga,5.7947,0.8973,25.91,86,65,3.37,GH,1695248989
367,murzuq,25.9155,13.9184,26.49,29,14,4.15,LY,1695248990
368,luza,60.6308,47.2512,16.69,66,77,6.62,RU,1695248990
369,labuan,5.2767,115.2417,27.2,83,20,0.51,MY,1695248991
370,villa dolores,-31.9459,-65.1896,23.71,37,0,2.89,AR,1695248991
371,grand-bassam,5.2118,-3.7388,25.98,91,51,2.54,CI,1695248992
372,nizhnyaya tavda,57.6731,66.1725,6.78,73,87,3.46,RU,1695248992
373,guia lopes da laguna,-21.4578,-56.1142,30.52,40,72,1.11,BR,1695248992
374,arauquita,7.0292,-71.4281,29.13,70,47,0.6,CO,1695248993
375,dudinka,69.4058,86.1778,3.68,93,100,4.2,RU,1695248994
376,matoury,4.8483,-52.3317,27.98,83,75,1.03,GF,1695248994
377,hailey,43.5196,-114.3153,22.16,26,0,5.14,US,1695248995
378,isangel,-19.55,169.2667,26.06,69,40,6.17,VU,1695248996
379,gebeit,21.0667,36.3167,28.17,34,6,2.87,SD,1695248996
380,solhan,38.9634,41.0293,17.34,39,91,0.41,TR,1695248997
381,touros,-5.1989,-35.4608,25.24,78,4,8.14,BR,1695248998
382,ushtobe,45.2514,77.9838,13.29,73,30,4.31,KZ,1695248998
383,rabaul,-4.1967,152.1721,27.29,78,50,5.74,PG,1695248999
384,andergrove,-21.0833,149.1833,25.36,78,2,2.23,AU,1695248999
385,daulatpur,26.5015,67.9706,29.04,71,89,3.58,PK,1695249000
386,tacuarembo,-31.7333,-55.9833,17.94,99,100,1.91,UY,1695248846
387,tsiombe,-25.3,45.4833,20.03,79,0,2.4,MG,1695249001
388,acarau,-2.8856,-40.12,26.6,78,5,8.13,BR,1695248757
389,mahdia,35.5047,11.0622,29.97,72,100,7.11,TN,1695249003
390,kiliya,45.4552,29.2637,16.71,84,14,1.61,UA,1695249005
391,shiguai,40.7058,110.2856,13.59,50,88,1.53,CN,1695249005
392,saint-joseph,-21.3667,55.6167,21.37,80,38,4.33,RE,1695248754
393,urangan,-25.3,152.9,20.68,77,14,1.56,AU,1695249007
394,tselinnoye,53.0833,85.6667,10.2,88,100,1.43,RU,1695249007
395,pasni,25.2631,63.471,28.76,60,100,3.57,PK,1695249008
396,tamiahua,21.2667,-97.45,29.69,73,0,4.99,MX,1695249008
397,egilsstadir,65.2653,-14.3948,3.95,87,75,5.14,IS,1695249009
398,isla vista,34.4133,-119.861,26.06,71,75,3.09,US,1695249009
399,laguna,38.421,-121.4238,30.19,47,0,4.63,US,1695249010
400,baiyin,36.5583,104.2081,12.2,80,39,3.61,CN,1695249010
401,tefe,-3.3542,-64.7114,29.06,74,20,1.54,BR,1695249011
402,tuy hoa,13.0833,109.3,25.15,90,46,1.46,VN,1695249012
403,altay,47.8667,88.1167,11.29,76,100,2.19,CN,1695249012
404,fortuna,40.5982,-124.1573,20.19,61,0,9.26,US,1695249013
405,pangai,-19.8,-174.35,26.06,65,40,11.32,TO,1695249013
406,parral,26.9333,-105.6667,31.19,21,1,2.93,MX,1695248784
407,codrington,-38.2667,141.9667,11.98,63,23,4.76,AU,1695249014
408,aranjuez,40.0311,-3.6025,19.58,49,26,7.15,ES,1695249015
409,acajutla,13.5928,-89.8275,29.43,75,100,2.83,SV,1695248980
410,murray bridge,-35.1167,139.2667,12.85,65,15,4.54,AU,1695249020
411,mugia,43.1041,-9.2179,19.53,87,100,7.21,ES,1695249021
412,san patricio,28.017,-97.5169,35.4,43,16,6.89,US,1695249022
413,nova vicosa,-17.8919,-39.3719,21.38,86,5,1.77,BR,1695249025
414,quellon,-43.1167,-73.6167,9.14,71,75,3.09,CL,1695249028
415,namtsy,62.7161,129.6658,0.23,65,5,3.97,RU,1695249030
416,point pedro,9.8167,80.2333,27.48,85,100,9.04,LK,1695249031
417,gadzhiyevo,69.2551,33.3362,6.44,67,99,9.48,RU,1695249032
418,novokruchininskiy,51.7833,113.7667,4.85,85,9,1.45,RU,1695249033
419,mahibadhoo,3.7833,72.9667,27.69,76,78,2.68,MV,1695249034
420,krasnyy chikoy,50.3643,108.7512,6.45,93,64,0.98,RU,1695249037
421,sasni,27.7167,78.0833,29.76,67,100,2.22,IN,1695249038
422,zaozersk,69.4005,32.4476,2.98,80,93,3.81,RU,1695249041
423,kibakwe,-6.7167,36.3667,18.63,71,2,3.11,TZ,1695249044
424,ta`u,-14.2336,-169.5144,26.18,64,81,8.99,AS,1695249046
425,severo-yeniseyskiy,60.3725,93.0408,7.41,94,83,3.98,RU,1695249048
426,kayyerkan,69.3786,87.7439,3.5,100,100,4.74,RU,1695249050
427,san pedro pochutla,15.7333,-96.4667,31.84,66,58,2.7,MX,1695249052
428,lethem,3.3803,-59.7968,27.92,62,68,1.12,GY,1695249053
429,marennes,45.8228,-1.1055,21.08,87,100,8.29,FR,1695249054
430,nemuro,43.3236,145.575,14.46,60,100,3.62,JP,1695249057
431,bereznehuvate,47.3078,32.8499,17.58,48,95,1.71,UA,1695249059
432,padang,-0.9492,100.3543,23.03,94,98,1.1,ID,1695249059
433,palmas,-10.2128,-48.3603,30.93,45,0,1.03,BR,1695249065
434,anatuya,-28.4606,-62.8347,21.17,58,21,4.12,AR,1695249066
435,sarmanovo,55.2553,52.5891,11.38,49,30,4.75,RU,1695249067
436,tazovsky,67.4667,78.7,3.08,90,90,5.58,RU,1695249067
437,lathi,21.7167,71.3833,25.24,80,99,2.99,IN,1695249068
438,smithers,54.7804,-127.1743,13.18,58,20,2.06,CA,1695249068
439,bubaque,11.2833,-15.8333,27.32,78,31,4.76,GW,1695249069
440,karimnagar,18.4333,79.15,24.87,91,100,1.54,IN,1695249074
441,srandakan,-7.9386,110.2506,21.79,92,13,0.89,ID,1695249075
442,kujang-up,39.8672,126.0303,15.04,81,97,1.67,KP,1695249076
443,bandarbeyla,9.4942,50.8122,25.7,82,87,10.22,SO,1695249078
444,igarka,67.4667,86.5833,4.3,87,96,7.07,RU,1695249080
445,pontianak,-0.0333,109.3333,25.99,94,75,3.09,ID,1695249082
446,kristiansund,63.1115,7.732,11.03,93,75,2.57,NO,1695249083
447,port saint john's,-31.6229,29.5448,17.39,81,58,5.05,ZA,1695249083
448,hita,33.3167,130.9333,27.13,86,93,4.38,JP,1695249084
449,tanguieta,10.6212,1.2665,23.81,89,86,1.81,BJ,1695249084
450,harnai,30.1005,67.9374,26.44,67,87,1.39,PK,1695249086
451,eydhafushi,5.1033,73.0708,28.03,72,86,2.93,MV,1695249087
452,aneho,6.2333,1.6,26.11,87,20,2.95,TG,1695249087
453,east london,-33.0153,27.9116,16.46,73,2,7.22,ZA,1695249088
454,el jadid,33.2549,-8.506,21.25,74,67,3.98,MA,1695249089
455,sanibel,26.449,-82.0223,31.01,60,77,0.86,US,1695249089
456,ciudad lazaro cardenas,17.9583,-102.2,29.84,70,15,3.14,MX,1695249090
457,luang namtha,20.9497,101.4011,20.86,99,32,0.18,LA,1695249090
458,yuzhno-kurilsk,44.0306,145.8556,14.22,60,100,2.58,RU,1695249091
459,jianshui,23.6363,102.8264,18.91,97,79,1.23,CN,1695249091
460,narsipatnam,17.6667,82.6167,25.83,80,100,1.51,IN,1695249092
461,dauphin,51.1494,-100.0502,22.08,30,0,2.57,CA,1695249092
462,bima,-8.4667,118.7167,24.05,78,7,1.65,ID,1695249093
463,banda aceh,5.5577,95.3222,25.56,84,100,1.07,ID,1695249094
464,francistown,-21.17,27.5079,23.09,29,32,3.29,BW,1695249094
465,diu,20.7141,70.9822,26.35,91,76,1.9,IN,1695249095
466,phan rang-thap cham,11.5667,108.9833,25.43,85,95,1.8,VN,1695249095
467,praia da vitoria,38.7333,-27.0667,20.98,88,40,8.17,PT,1695248816
468,remscheid,51.1833,7.2,18.99,70,100,2.99,DE,1695248588
469,hithadhoo,-0.6,73.0833,27.52,78,82,3.98,MV,1695249096
470,yamada,39.4667,141.95,18.88,97,100,2.39,JP,1695249097
471,teknaf,20.8624,92.3058,25.65,92,100,4.66,BD,1695249098
472,lompoc,34.6391,-120.4579,25.94,81,100,3.6,US,1695249098
473,vieux-habitants,16.0589,-61.7659,28.17,76,54,5.09,GP,1695249099
474,al kharijah,25.4514,30.5464,26.6,35,0,3.88,EG,1695249099
475,fort bragg,35.139,-79.006,27.68,49,0,2.06,US,1695249100
476,sisimiut,66.9395,-53.6735,2.15,66,61,3.89,GL,1695249101
477,san luis,-33.295,-66.3356,18.1,42,1,2.66,AR,1695249101
478,tvoroyri,61.5556,-6.8111,9.99,90,100,15.7,FO,1695249102
479,zouerate,22.7187,-12.4521,33.11,26,4,6.65,MR,1695249102
480,tibanbang,6.6315,126.1055,27.0,79,100,1.6,PH,1695249103
481,tashtyp,52.7939,89.8983,8.37,92,100,0.57,RU,1695249103
482,asekeyevo,53.5742,52.7972,9.47,50,7,1.91,RU,1695249104
483,ixtapa,20.7,-105.2,30.57,70,100,2.57,MX,1695248894
484,dano,11.15,-3.0667,26.37,76,30,2.79,BF,1695249105
485,nuku'alofa,-21.1333,-175.2,24.19,64,75,8.23,TO,1695249105
486,west bay,19.3667,-81.4167,31.04,72,20,3.09,KY,1695249106
487,puerto deseado,-47.7503,-65.8938,5.92,64,44,8.59,AR,1695249102
488,yaren,-0.5472,166.916,28.74,69,22,0.83,NR,1695249107
489,dryden,49.7833,-92.7503,25.16,47,0,4.63,CA,1695249107
490,kinablangan,7.6947,126.5503,26.7,83,99,1.32,PH,1695249108
491,ganshui,28.7422,106.7111,22.14,98,100,1.67,CN,1695249109
492,saint-pierre,-21.3393,55.4781,21.98,73,0,2.06,RE,1695249109
493,yeniseysk,58.4497,92.1703,8.3,96,25,1.79,RU,1695249110
494,kismayo,-0.3582,42.5454,25.01,86,58,6.14,SO,1695249110
495,inarajan village,13.2736,144.7484,28.54,97,100,5.12,GU,1695249111
496,verdal,63.7933,11.4817,12.02,78,100,1.89,NO,1695249112
497,tomatlan,19.9333,-105.25,29.05,86,89,1.28,MX,1695249113
498,nikolayevsk-on-amure,53.1406,140.73,7.35,46,0,7.03,RU,1695249114
499,pisco,-13.7,-76.2167,20.03,77,100,5.66,PE,1695249114
500,playa del ingles,27.7567,-15.5787,23.86,73,15,4.66,ES,1695249115
501,gwanda,-20.9333,29.0,21.13,32,17,3.01,ZW,1695249115
502,norilsk,69.3535,88.2027,3.57,95,100,2.98,RU,1695249116
503,labis,2.385,103.021,23.29,96,69,0.6,MY,1695249116
504,bovalino,38.149,16.174,26.83,58,100,1.96,IT,1695249117
505,prince rupert,54.3161,-130.3201,10.83,98,100,3.6,CA,1695249117
506,oyama,36.3,139.8,26.99,82,86,1.29,JP,1695248527
507,lake albert,-35.1667,147.3833,11.33,59,2,5.36,AU,1695249118
508,trekhgornyy,54.815,58.4592,6.92,76,93,1.79,RU,1695249119
509,mata-utu,-13.2816,-176.1745,26.84,78,67,9.2,WF,1695249121
510,yuktae-dong,40.0247,128.1597,16.0,79,99,1.7,KP,1695249121
511,rawai,7.7797,98.3253,29.99,69,93,6.92,TH,1695249122
512,ishinomaki,38.4167,141.3,22.0,92,100,5.76,JP,1695249123
513,talara,-4.5772,-81.2719,24.42,73,0,7.14,PE,1695249124
514,camabatela,-8.1881,15.375,18.68,89,78,1.13,AO,1695249124
515,ciudad madero,22.2667,-97.8333,33.11,62,0,6.8,MX,1695249125
516,rio branco,-9.9747,-67.81,24.34,100,75,1.54,BR,1695249126
517,ringkobing,56.0901,8.244,18.34,82,91,11.13,DK,1695249126
518,fort drum,44.0584,-75.7619,17.15,57,0,2.06,US,1695249127
519,katsuren-haebaru,26.3369,127.8719,28.01,88,40,2.06,JP,1695249127
520,port alberni,49.2413,-124.8028,23.29,49,0,1.34,CA,1695249128
521,antsiranana,-12.2787,49.2917,22.88,80,10,5.62,MG,1695249129
522,qamdo,31.1667,97.2333,2.05,91,88,1.61,CN,1695249129
523,springhill,33.006,-93.4668,26.94,46,79,2.9,US,1695249130
524,sept-iles,50.2001,-66.3821,14.0,69,75,4.12,CA,1695248934
525,malango,-2.9627,119.9001,19.54,91,44,0.31,ID,1695249131
526,paso robles,35.6266,-120.691,23.29,60,0,9.26,US,1695248837
527,lazaro cardenas,17.9583,-102.2,29.84,70,15,3.14,MX,1695249090
528,dadukou,26.5479,101.7054,21.54,97,100,0.76,CN,1695249132
529,peniche,39.3558,-9.3811,19.05,90,96,6.99,PT,1695249134
530,ceeldheer,3.8488,47.1806,24.67,90,48,6.92,SO,1695249134
531,mount isa,-20.7333,139.5,20.87,35,11,0.0,AU,1695249039
532,port alfred,-33.5906,26.891,11.77,81,10,2.97,ZA,1695249136
533,corner brook,48.9667,-57.9484,12.09,95,59,0.92,CA,1695248839
534,khenchela,35.4358,7.1433,21.51,32,41,3.92,DZ,1695249137
535,kentville,45.0835,-64.4988,17.01,82,78,2.06,CA,1695249137
536,zheleznodorozhnyy,55.7503,38.0042,17.53,57,95,4.26,RU,1695249138
537,nzega,-2.479,29.5564,14.12,91,29,1.64,RW,1695249138
538,guaraniacu,-25.1008,-52.8781,18.55,94,32,1.57,BR,1695249139
539,ciudad bolivar,8.1222,-63.5497,32.46,42,64,1.71,VE,1695249140
540,puryong,42.0606,129.7117,14.1,62,100,1.06,KP,1695249141
541,bellmere,-27.0875,152.923,23.38,40,4,1.12,AU,1695249142
542,arraial do cabo,-22.9661,-42.0278,21.98,88,75,6.69,BR,1695249143
543,bogandinskiy,56.8937,65.8938,4.18,71,72,3.33,RU,1695249143
544,revelstoke,50.9832,-118.2023,19.01,37,100,3.6,CA,1695249012
545,taltal,-25.4,-70.4833,16.25,73,46,5.47,CL,1695249020
546,chulakkurgan,43.765,69.1814,14.5,49,33,2.21,KZ,1695249145
547,hassi messaoud,31.6804,6.0729,28.92,18,0,2.06,DZ,1695249145
548,pasuquin,18.3328,120.6177,26.97,94,40,2.06,PH,1695249146
549,mahina,-17.5065,-149.489,26.87,65,20,1.54,PF,1695249147
550,peterborough,52.5736,-0.2478,14.4,94,100,2.57,GB,1695249147
551,flin flon,54.7682,-101.865,18.91,39,40,3.09,CA,1695248659
552,mariinsk,56.2139,87.7472,9.05,91,3,1.53,RU,1695249148
553,birjand,32.8663,59.2211,15.26,29,0,4.12,IR,1695249149
554,gaalkacyo,6.7697,47.4308,25.07,67,12,8.15,SO,1695249150
555,mejit,10.2753,170.8646,28.04,78,78,5.21,MH,1695249151
556,al jawf,29.5,38.75,23.67,37,0,4.67,SA,1695249151
557,turpan,42.9333,89.1667,24.94,23,74,3.13,CN,1695249152
558,yanchep,-31.55,115.6833,13.67,76,0,2.35,AU,1695249152
559,nogliki,51.8333,143.1667,9.22,50,0,10.54,RU,1695249153
560,motygino,58.1831,94.7592,6.73,94,23,1.29,RU,1695249154
561,maracaibo,10.6317,-71.6406,29.82,72,54,4.88,VE,1695249028
562,mandera,3.9366,41.867,25.95,61,31,8.97,KE,1695249155
563,puerto baquerizo moreno,-0.9,-89.6,26.55,69,75,7.2,EC,1695249156
564,verkhnevilyuysk,63.4453,120.3167,2.78,96,100,2.45,RU,1695249157
565,minab,27.1467,57.0801,31.73,53,46,1.03,IR,1695249162
566,sao miguel do tapuio,-5.5036,-41.3233,30.06,31,79,2.52,BR,1695249163
567,serdar,38.9764,56.2757,15.94,47,0,3.87,TM,1695249163
568,kruisfontein,-34.0033,24.7314,10.49,87,11,1.93,ZA,1695249164
569,victorica,-36.2151,-65.4359,17.64,53,100,7.94,AR,1695249164
570,benguela,-12.5763,13.4055,21.26,83,60,3.09,AO,1695249165
571,ebaye,8.7748,167.7392,30.01,74,40,6.17,MH,1695249165
572,sherbakul',54.6316,72.3963,8.93,82,0,2.82,RU,1695249166
573,abu dhabi,24.4667,54.3667,34.41,69,99,1.54,AE,1695249167
574,narasannapeta,18.4167,84.05,25.75,82,100,2.77,IN,1695248608
575,nantucket,41.2835,-70.0995,19.44,80,0,4.63,US,1695249168
576,marshfield,44.6689,-90.1718,26.49,53,0,4.63,US,1695249168
577,beyla,8.6833,-8.6333,20.54,97,97,0.68,GN,1695249169
578,bereznik,62.8551,42.7072,10.78,91,85,4.81,RU,1695249170
579,santa ana,33.7456,-117.8678,28.01,58,40,5.14,US,1695249022
580,rosamond,34.8641,-118.1634,28.82,50,0,11.32,US,1695249172
581,revda,56.801,59.9303,7.6,68,68,4.32,RU,1695249172
582,noosa heads,-26.3833,153.15,24.08,75,76,3.87,AU,1695249173
583,hit,33.6416,42.8251,30.86,15,0,3.82,IQ,1695249173
584,katutura,-22.521,17.0557,19.38,12,0,3.09,NA,1695249174
585,la ronge,55.1001,-105.2842,16.14,51,75,2.06,CA,1695249174
586,coaticook,45.1334,-71.7991,15.87,90,52,1.6,CA,1695249175
587,nagqu,31.5,92.0,0.92,100,100,1.16,CN,1695249175
588,cruzeiro do sul,-29.5128,-51.9853,24.17,94,0,1.75,BR,1695249176
589,basco,20.4487,121.9702,28.7,78,98,4.62,PH,1695249177
590,moreira sales,-24.0622,-53.0069,26.47,55,7,2.97,BR,1695249177
591,neiafu,-18.65,-173.9833,26.38,61,40,7.2,TO,1695249178
592,nakamura,32.9833,132.9333,26.25,93,96,2.08,JP,1695249178
593,aioun,16.6614,-9.6149,32.37,40,38,9.52,MR,1695249179
594,kidal,18.4411,1.4078,34.26,20,5,2.36,ML,1695249180
595,lawrence,38.9717,-95.2353,30.68,42,20,3.6,US,1695249033
596,brisas de zicatela,15.8369,-97.0419,31.29,55,0,3.09,MX,1695249181
597,san ignacio de velasco,-16.3667,-60.95,30.09,42,72,1.22,BO,1695249181
598,baihe,22.15,107.2333,23.83,92,10,0.52,CN,1695249182
599,cockburn town,21.4612,-71.1419,29.18,70,60,6.95,TC,1695249182
